[
  {
    "id": 1,
    "name": "Château d'Hochosterwitz",
    "address": "Hochosterwitz 11, 9314 Sankt Georgen am Längsee, Autriche",
    "type": "castel",
    "latitude": 46.7559,
    "longitude": 14.4523,
    "picture": "https://voyageforum.info/images/hd/posts/openmedium/1572987989-bOz5YrbkB0Rs0ZA.jpeg"
  },
  {
    "id": 2,
    "name": "Provin",
    "address": "Provin, 59185 Nord, France",
    "type": "city",
    "latitude": 48.549999,
    "longitude": 3.3,
    "picture": "https://provins.net/wp-content/uploads/2018/06/cite-medievale-de-provins-2-880x562.jpg"
  },
  {
    "id": 3,
    "name": "Château de Bézéril",
    "address": "Château de Bézéril, 32330 Bézéril, Gers, France",
    "type": "castel",
    "latitude": 43.544488,
    "longitude": 0.880211,
    "picture": "https://www.ccsaves32.fr/wp-content/uploads/2016/09/B%C3%A9z%C3%A9ril10-1024x683.jpg"
  },
  {
    "id": 4,
    "name": "La Couvertoirade",
    "address": "La Couvertoirade, 12230 Aveyron, France",
    "type": "city",
    "latitude": 44.1478,
    "longitude": 3.0170,
    "picture": "https://www.campingfrance.com/asset/cms/94932/config/76284/couvertoirade.jpg"
  },
  {
    "id": 5,
    "name": "Meymac",
    "address": "Meymac, 19250 Corrèze, France",
    "type": "city",
    "latitude": 45.5746,
    "longitude": 2.0307,
    "picture": "https://www.plusbeauxdetours.com/wp-content/uploads/2020/05/Vue-chevet-abbaye-web.jpg"
  },
  {
    "id": 6,
    "name": "Beaulieu-sur-Dordogne",
    "address": "Beaulieu-sur-Dordogne, 19120 Corrèze, France",
    "type": "city",
    "latitude": 44.9583,
    "longitude": 2.1056,
    "picture": "https://www.camping-leventoulou.com/wp-content/uploads/2024/01/beaulieu-sur-dordogne-ventoulou.jpg"
  },
  {
    "id": 8,
    "name": "Salers",
    "address": "Salers, 15140 Cantal, France",
    "type": "city",
    "latitude": 45.0499,
    "longitude": 2.5861,
    "picture": "https://creativecommons.fr/wp-content/uploads/2025/04/2025-04-30-12-06-30_-1024x572.webp"
  },
  {
    "id": 9,
    "name": "Chauvigny",
    "address": "Chauvigny, 86300 Vienne, France",
    "type": "city",
    "latitude": 46.4996,
    "longitude": 0.5300,
    "picture": "https://www.tourisme-vienne.com/wp-content/uploads/yatadata/PCUAQU086V5015P1/cite-medievale-de-chauvigny-loic-lagarde-2318-scaled.jpg"
  },
  {
    "id": 11,
    "name": "Carcassonne",
    "address": "Carcassonne, 11000 Aude, France",
    "type": "city",
    "latitude": 43.216667,
    "longitude": 2.350000,
    "picture": "https://res.cloudinary.com/enchanting/q_70,f_auto,c_fill,g_face/leboat-web/2024/07/carcassonne_canal_du-midi_card_800x430.jpg"
  },
  {
    "id": 12,
    "name": "Château de Castelnaud",
    "address": "Château de Castelnaud, 24250 Castelnaud-la-Chapelle, Dordogne, France",
    "type": "castel",
    "latitude": 44.8095,
    "longitude": 1.1427,
    "picture": "https://www.slow-village.com/wp-content/uploads/2024/11/%C2%A9-JM-Laugery-DJI_0040-scaled-1.webp"
  },
  {
    "id": 13,
    "name": "Château de Castelnau-Bretenoux",
    "address": "Château de Castelnau-Bretenoux, 46130 Prudhomat, Lot, France",
    "type": "castel",
    "latitude": 44.8992,
    "longitude": 1.8264,
    "picture": "https://media.artabsolument.com/image/place/big/castelnau.jpg"
  },
  {
    "id": 14,
    "name": "Conques",
    "address": "Conques (Conques-en-Rouergue), 12320 Aveyron, France",
    "type": "city",
    "latitude": 44.5853,
    "longitude": 2.5553,
    "picture": "https://www.tourisme-conques.fr/upload/page/79/conques-vue-cendie-medium.png"
  },
  {
    "id": 15,
    "name": "Forteresse de Largoët",
    "address": "Forteresse de Largoët (Tours d’Elven), 56250 Elven, Morbihan, France",
    "type": "castel",
    "latitude": 47.725278,
    "longitude": -2.618611,
    "picture": "https://static.actu.fr/uploads/2025/05/0c5f153baa446406f153baa44446f1v-960x640.jpg"
  },
  {
    "id": 16,
    "name": "Château de Beynac",
    "address": "Château de Beynac, 24220 Beynac-et-Cazenac, Dordogne, France",
    "type": "castel",
    "latitude": 44.840278,
    "longitude": 1.145278,
    "picture": ""
  },
  {
    "id": 17,
    "name": "Château de Murol",
    "address": "Château de Murol, 63790 Murol, Puy-de-Dôme, France",
    "type": "castel",
    "latitude": 45.5781,
    "longitude": 2.9450,
    "picture": ""
  },
  {
    "id": 18,
    "name": "Ville souterraine de Naours",
    "address": "Naours, 80260 Naours, Somme, France",
    "type": "city",
    "latitude": 50.1910,
    "longitude": 2.1900,
    "picture": ""
  },
  {
    "id": 19,
    "name": "Château de Val",
    "address": "Château de Val, 15290 Lanobre (Cantal), France",
    "type": "castel",
    "latitude": 45.4428,
    "longitude": 2.5053,
    "picture": ""
  },
  {
    "id": 20,
    "name": "Château de Berzé-le-Châtel",
    "address": "Château de Berzé-le-Châtel, 71960 Berzé-le-Châtel, Saône-et-Loire, France",
    "type": "castel",
    "latitude": 46.3644,
    "longitude": 4.6964,
    "picture": ""
  },
  {
    "id": 21,
    "name": "Château de Fénis",
    "address": "Château de Fénis, 11020 Fénis, Vallée d’Aoste, Italie",
    "type": "castel",
    "latitude": 45.7383,
    "longitude": 7.4761,
    "picture": ""
  },
  {
    "id": 22,
    "name": "Château d'Olhain",
    "address": "Château d'Olhain, 62150 Fresnicourt-le-Dolmen, Pas-de-Calais, France",
    "type": "castel",
    "latitude": 50.4408,
    "longitude": 2.5639,
    "picture": ""
  },
  {
    "id": 23,
    "name": "Château de La Roche",
    "address": "Château de La Roche, 42155 Saint-Priest-la-Roche, Loire, France",
    "type": "castel",
    "latitude": 45.8978,
    "longitude": 4.0483,
    "picture": ""
  },
  {
    "id": 24,
    "name": "Najac et son château",
    "address": "Château de Najac, 12270 Najac, Aveyron, France",
    "type": "castel",
    "latitude": 44.2206,
    "longitude": 1.9714,
    "picture": ""
  },
  {
    "id": 25,
    "name": "Château de La Ventrouze",
    "address": "Château de La Ventrouze, 61190 La Ventrouze, Orne, France",
    "type": "castel",
    "latitude": 48.6767,
    "longitude": 0.7297,
    "picture": ""
  },
  {
    "id": 26,
    "name": "Monpazier",
    "address": "Monpazier, 24540 Dordogne, France",
    "type": "city",
    "latitude": 44.6783,
    "longitude": 0.8931,
    "picture": ""
  },
  {
    "id": 27,
    "name": "Château d’Aguilar",
    "address": "Château d’Aguilar, 11360 Tuchan, Aude, France",
    "type": "castel",
    "latitude": 42.8800,
    "longitude": 2.7972,
    "picture": ""
  },
  {
    "id": 28,
    "name": "Château Gaillard",
    "address": "Château Gaillard, 27700 Les Andelys, Eure, France",
    "type": "castel",
    "latitude": 49.2469,
    "longitude": 1.4131,
    "picture": ""
  },
  {
    "id": 29,
    "name": "Châteaux de Lastours",
    "address": "Châteaux de Lastours, 11600 Lastours, Aude, France",
    "type": "castel",
    "latitude": 43.3317,
    "longitude": 2.3803,
    "picture": ""
  },
  {
    "id": 30,
    "name": "Château de Peyrepertuse",
    "address": "Château de Peyrepertuse, 11350 Duilhac-sous-Peyrepertuse, Aude, France",
    "type": "castel",
    "latitude": 42.8544,
    "longitude": 2.5700,
    "picture": ""
  },
  {
    "id": 31,
    "name": "Château de Châteldon",
    "address": "Château de Châteldon, 63290 Châteldon, Puy-de-Dôme, France",
    "type": "castel",
    "latitude": 45.9747,
    "longitude": 3.5411,
    "picture": ""
  },
  {
    "id": 32,
    "name": "The English Castle",
    "address": "The English Castle, 46330 Bouziès, Lot, France",
    "type": "castel",
    "latitude": 44.4806,
    "longitude": 1.6653,
    "picture": ""
  },
  {
    "id": 33,
    "name": "Uzerche",
    "address": "Uzerche, 19140 Corrèze, France",
    "type": "city",
    "latitude": 45.4233,
    "longitude": 1.5664,
    "picture": ""
  },
  {
    "id": 34,
    "name": "Château de Biron",
    "address": "Château de Biron, 24540 Biron, Dordogne, France",
    "type": "castel",
    "latitude": 44.6283,
    "longitude": 0.8853,
    "picture": "https://chateau-biron.fr/wp-content/uploads/2025/03/chateau-de-biron-ok.webp"
  },
  {
    "id": 35,
    "name": "Château fort de Dio",
    "address": "Château fort de Dio, 34650 Dio-et-Valquières, Hérault, France",
    "type": "castel",
    "latitude": 43.7264,
    "longitude": 3.1422,
    "picture": ""
  },
  {
    "id": 36,
    "name": "Rocamadour",
    "address": "Rocamadour, 46500 Lot, France",
    "type": "site",
    "latitude": 44.7994,
    "longitude": 1.6169,
    "picture": ""
  },
  {
    "id": 37,
    "name": "Manoir de La Saucerie",
    "address": "Manoir de La Saucerie, 61700 La Haute-Chapelle, Orne, France",
    "type": "castel",
    "latitude": 48.5400,
    "longitude": -0.6500,
    "picture": ""
  },
  {
    "id": 38,
    "name": "Château de Peyrelade",
    "address": "Château de Peyrelade, 12640 Rivière-sur-Tarn, Aveyron, France",
    "type": "castel",
    "latitude": 44.1878,
    "longitude": 3.1528,
    "picture": ""
  },
  {
    "id": 39,
    "name": "Belcastel",
    "address": "Belcastel, 12390 Aveyron, France",
    "type": "city",
    "latitude": 44.3772,
    "longitude": 2.2878,
    "picture": ""
  },
  {
    "id": 40,
    "name": "Château de Tonquédec",
    "address": "Château de Tonquédec, 22140 Tonquédec, Côtes-d'Armor, France",
    "type": "castel",
    "latitude": 48.6244,
    "longitude": -3.4089,
    "picture": ""
  },
  {
    "id": 42,
    "name": "Château de Bonaguil",
    "address": "Château de Bonaguil, 47500 Saint-Front-sur-Lémance, Lot-et-Garonne, France",
    "type": "castel",
    "latitude": 44.5739,
    "longitude": 1.0156,
    "picture": ""
  },
  {
    "id": 43,
    "name": "Saint-Cirq-Lapopie",
    "address": "Saint-Cirq-Lapopie, 46330 Lot, France",
    "type": "city",
    "latitude": 44.4653,
    "longitude": 1.6706,
    "picture": ""
  },
  {
    "id": 45,
    "name": "Château de Foix",
    "address": "Château de Foix, 09000 Foix, Ariège, France",
    "type": "castel",
    "latitude": 42.9644,
    "longitude": 1.6050,
    "picture": ""
  },
  {
    "id": 46,
    "name": "Château de Valençay",
    "address": "Château de Valençay, 2 Rue de Blois, 36600 Valençay, Indre, France",
    "type": "castel",
    "latitude": 47.1628,
    "longitude": 1.5644,
    "picture": ""
  },
  {
    "id": 48,
    "name": "Fort de Joux",
    "address": "Fort de Joux, 25300 La Cluse-et-Mijoux, Doubs, France",
    "type": "castel",
    "latitude": 46.8500,
    "longitude": 6.3750,
    "picture": ""
  },
  {
    "id": 49,
    "name": "Château du Haut-Koenigsbourg",
    "address": "Château du Haut-Koenigsbourg, 67600 Orschwiller, Bas-Rhin, France",
    "type": "castel",
    "latitude": 48.2492,
    "longitude": 7.3442,
    "picture": ""
  },
  {
    "id": 50,
    "name": "Château de Montségur",
    "address": "Château de Montségur, 09300 Montségur, Ariège, France",
    "type": "castel",
    "latitude": 42.8689,
    "longitude": 1.8333,
    "picture": ""
  },
  {
    "id": 54,
    "name": "Château d'Amboise",
    "address": "Château Royal d'Amboise, 37400 Amboise, Indre-et-Loire, France",
    "type": "castel",
    "latitude": 47.4136,
    "longitude": 0.9867,
    "picture": ""
  },
  {
    "id": 55,
    "name": "Château de Chinon",
    "address": "Forteresse Royale de Chinon, 37500 Chinon, Indre-et-Loire, France",
    "type": "castel",
    "latitude": 47.1658,
    "longitude": 0.2414,
    "picture": ""
  },
  {
    "id": 56,
    "name": "Château de Saumur",
    "address": "Château de Saumur, 49400 Saumur, Maine-et-Loire, France",
    "type": "castel",
    "latitude": 47.2664,
    "longitude": -0.0731,
    "picture": ""
  },
  {
    "id": 57,
    "name": "Château d'Angers",
    "address": "Château d'Angers, 49100 Angers, Maine-et-Loire, France",
    "type": "castel",
    "latitude": 47.4714,
    "longitude": -0.5594,
    "picture": ""
  },
  {
    "id": 58,
    "name": "Château de Fougères",
    "address": "Château de Fougères, 35300 Fougères, Ille-et-Vilaine, France",
    "type": "castel",
    "latitude": 48.3514,
    "longitude": -1.2011,
    "picture": ""
  },
  {
    "id": 59,
    "name": "Château de Vitré",
    "address": "Château de Vitré, 35500 Vitré, Ille-et-Vilaine, France",
    "type": "castel",
    "latitude": 48.1242,
    "longitude": -1.2083,
    "picture": ""
  },
  {
    "id": 60,
    "name": "Château de Combourg",
    "address": "Château de Combourg, 35270 Combourg, Ille-et-Vilaine, France",
    "type": "castel",
    "latitude": 48.4147,
    "longitude": -1.7494,
    "picture": ""
  },
  {
    "id": 61,
    "name": "Château de Suscinio",
    "address": "Château de Suscinio, 56370 Sarzeau, Morbihan, France",
    "type": "castel",
    "latitude": 47.5000,
    "longitude": -2.7653,
    "picture": ""
  },
  {
    "id": 62,
    "name": "Château de Josselin",
    "address": "Château de Josselin, 56120 Josselin, Morbihan, France",
    "type": "castel",
    "latitude": 47.9586,
    "longitude": -2.5506,
    "picture": ""
  },
  {
    "id": 64,
    "name": "Château de Trécesson",
    "address": "Château de Trécesson, 56430 Campénéac, Morbihan, France",
    "type": "castel",
    "latitude": 48.0372,
    "longitude": -2.2778,
    "picture": ""
  },
  {
    "id": 66,
    "name": "Château de la Hunaudaye",
    "address": "Château de la Hunaudaye, 22270 Plédéliac, Côtes-d'Armor, France",
    "type": "castel",
    "latitude": 48.4572,
    "longitude": -2.3694,
    "picture": ""
  },
  {
    "id": 67,
    "name": "Fort La Latte",
    "address": "Fort La Latte, 22240 Plévenon, Côtes-d'Armor, France",
    "type": "castel",
    "latitude": 48.6492,
    "longitude": -2.2969,
    "picture": ""
  },
  {
    "id": 79,
    "name": "Château de Châteaubriant",
    "address": "Château de Châteaubriant, 44110 Châteaubriant, Loire-Atlantique, France",
    "type": "castel",
    "latitude": 47.7239,
    "longitude": -1.3772,
    "picture": ""
  },
  {
    "id": 80,
    "name": "Chateau à Tour",
    "address": "Chateau à Tour, France",
    "type": "castel",
    "latitude": 45.0000,
    "longitude": 3.0000,
    "picture": ""
  },
  {
    "id": 81,
    "name": "Parthenay",
    "address": "Parthenay, 79200 Parthenay, Deux-Sèvres, France",
    "type": "castel",
    "latitude": 46.6500,
    "longitude": -0.2500,
    "picture": ""
  },
  {
    "id": 82,
    "name": "Vogüé et son château",
    "address": "Vogüé, 07200 Vogüé, Ardèche, France",
    "type": "castel",
    "latitude": 44.5500,
    "longitude": 4.4000,
    "picture": ""
  },
  {
    "id": 83,
    "name": "Pérouges",
    "address": "Pérouges, 01800 Pérouges, Ain, France",
    "type": "castel",
    "latitude": 46.0833,
    "longitude": 4.7833,
    "picture": ""
  },
  {
    "id": 84,
    "name": "Saint Montan en Vivarais",
    "address": "Saint Montan, 07220 Saint-Montan, Ardèche, France",
    "type": "castel",
    "latitude": 44.5550,
    "longitude": 4.6330,
    "picture": ""
  },
  {
    "id": 85,
    "name": "Séverac le Château",
    "address": "Séverac-le-Château, 12150 Sévérac-le-Château, Aveyron, France",
    "type": "castel",
    "latitude": 44.3500,
    "longitude": 3.0500,
    "picture": ""
  },
  {
    "id": 86,
    "name": "Château de La Guyonnière",
    "address": "Château de La Guyonnière, France",
    "type": "castel",
    "latitude": 47.1500,
    "longitude": -1.5000,
    "picture": ""
  },
  {
    "id": 89,
    "name": "Château Gaillard",
    "address": "Château Gaillard, Vallée de la Seine, Normandie, France",
    "type": "castel",
    "latitude": 49.4000,
    "longitude": 1.4200,
    "picture": ""
  },
  {
    "id": 90,
    "name": "Château de Haut-Andlau",
    "address": "Château de Haut-Andlau, 67110 Andlau, Bas-Rhin, Alsace, France",
    "type": "castel",
    "latitude": 48.4100,
    "longitude": 7.4500,
    "picture": ""
  },
  {
    "id": 91,
    "name": "Château Lavoute Polignac",
    "address": "Château de Lavoute-Polignac, 43500 Lavoute-Polignac, Haute-Loire, France",
    "type": "castel",
    "latitude": 45.0500,
    "longitude": 3.7300,
    "picture": ""
  },
  {
    "id": 92,
    "name": "Château de Créminil",
    "address": "Château de Créminil, 62310 Estrée-Blanche, Pas-de-Calais, France",
    "type": "castel",
    "latitude": 50.5250,
    "longitude": 2.5500,
    "picture": ""
  },
  {
    "id": 93,
    "name": "Pierrefonds",
    "address": "Château de Pierrefonds, 60350 Pierrefonds, Oise, France",
    "type": "castel",
    "latitude": 49.3667,
    "longitude": 2.9667,
    "picture": ""
  },
  {
    "id": 94,
    "name": "Château de Puylaurens",
    "address": "Château de Puylaurens, 81700 Puylaurens, Tarn, France",
    "type": "castel",
    "latitude": 43.5500,
    "longitude": 2.3000,
    "picture": ""
  },
  {
    "id": 95,
    "name": "Le Château de Ratilly",
    "address": "Château de Ratilly, 89520 Treigny, Yonne, France",
    "type": "castel",
    "latitude": 47.7670,
    "longitude": 3.2000,
    "picture": ""
  },
  {
    "id": 96,
    "name": "Château templier des Bourines",
    "address": "Château des Bourines, près de Laissac, 12310 Laissac, Aveyron, France",
    "type": "castel",
    "latitude": 44.4700,
    "longitude": 2.8700,
    "picture": ""
  },
  {
    "id": 97,
    "name": "Château de Puymartin",
    "address": "Château de Puymartin, 24250 Marquay, Dordogne, France",
    "type": "castel",
    "latitude": 45.0830,
    "longitude": 1.2500,
    "picture": ""
  },
  {
    "id": 98,
    "name": "Aigues-Mortes: Tours et Remparts",
    "address": "Aigues-Mortes, 30220 Aigues-Mortes, Gard, France",
    "type": "castel",
    "latitude": 43.5650,
    "longitude": 4.1900,
    "picture": ""
  },
  {
    "id": 99,
    "name": "Château de Chabenet",
    "address": "Château de Chabenet, 36230 Chaillac, Indre, France",
    "type": "castel",
    "latitude": 46.3670,
    "longitude": 1.7670,
    "picture": ""
  },
  {
    "id": 120,
    "name": "Château des comtes de Comminges de Bramevaque",
    "address": "Château de Bramevaque, 31110 Bramevaque, Haute-Garonne, France",
    "type": "castel",
    "latitude": 43.0833,
    "longitude": 0.7333,
    "picture": ""
  },
  {
    "id": 121,
    "name": "Château de Val",
    "address": "Château de Val, 19110 Bort-les-Orgues, Corrèze, Limousin, France",
    "type": "castel",
    "latitude": 45.4372,
    "longitude": 2.6289,
    "picture": ""
  },
  {
    "id": 122,
    "name": "Château d'Anjony",
    "address": "Château d'Anjony, 15300 Tournemire, Cantal, France",
    "type": "castel",
    "latitude": 44.9200,
    "longitude": 2.6667,
    "picture": ""
  },
  {
    "id": 123,
    "name": "Château fort de Lourdes",
    "address": "Château fort de Lourdes, 65100 Lourdes, Hautes-Pyrénées, France",
    "type": "castel",
    "latitude": 43.0950,
    "longitude": -0.0478,
    "picture": ""
  },
  {
    "id": 125,
    "name": "Citadelle de Bonifacio",
    "address": "Citadelle de Bonifacio, 20169 Bonifacio, Corse, France",
    "type": "castel",
    "latitude": 41.3872,
    "longitude": 9.1597,
    "picture": ""
  },
  {
    "id": 126,
    "name": "Château de Bonneval",
    "address": "Château de Bonneval, 87190 Saint-Pardoux, Haute-Vienne, France",
    "type": "castel",
    "latitude": 45.7583,
    "longitude": 0.9111,
    "picture": ""
  },
  {
    "id": 127,
    "name": "Château de Cléron",
    "address": "Château de Cléron, 25330 Cléron, Doubs, France",
    "type": "castel",
    "latitude": 47.2500,
    "longitude": 6.2500,
    "picture": ""
  },
  {
    "id": 128,
    "name": "Château de Tramezaygues",
    "address": "Château de Tramezaygues, 65120 Tramezaygues, Hautes-Pyrénées, France",
    "type": "castel",
    "latitude": 42.8500,
    "longitude": 0.6833,
    "picture": ""
  },
  {
    "id": 129,
    "name": "Forteresse de Salses",
    "address": "Forteresse de Salses, 66600 Salses-le-Château, Pyrénées-Orientales, France",
    "type": "castel",
    "latitude": 42.7500,
    "longitude": 2.9000,
    "picture": ""
  },
  {
    "id": 130,
    "name": "Château du Sailhant",
    "address": "Château du Sailhant, 15230 Anglards-de-Salers, Cantal, France",
    "type": "castel",
    "latitude": 45.1428,
    "longitude": 2.6311,
    "picture": ""
  },
  {
    "id": 131,
    "name": "Château de Lacypierre",
    "address": "Château de Lacypierre, 24250 Saint-Crépin-et-Carlucet, Dordogne, France",
    "type": "castel",
    "latitude": 44.9000,
    "longitude": 1.0833,
    "picture": ""
  },
  {
    "id": 132,
    "name": "Château de Montbrun",
    "address": "Château de Montbrun, 24360 Dournazac, Nouvelle-Aquitaine, France",
    "type": "castel",
    "latitude": 45.2000,
    "longitude": 0.9833,
    "picture": ""
  },
  {
    "id": 133,
    "name": "La Grande Filolie",
    "address": "La Grande Filolie, 24290 Montignac, Dordogne, France",
    "type": "castel",
    "latitude": 45.0500,
    "longitude": 1.1667,
    "picture": ""
  },
  {
    "id": 134,
    "name": "Château de Menthon-Saint-Bernard",
    "address": "Château de Menthon-Saint-Bernard, 74290 Menthon-Saint-Bernard, Haute-Savoie, France",
    "type": "castel",
    "latitude": 45.8644,
    "longitude": 6.1433,
    "picture": ""
  },
  {
    "id": 135,
    "name": "Château de Tarascon",
    "address": "Château de Tarascon, 13150 Tarascon, Bouches-du-Rhône, France",
    "type": "castel",
    "latitude": 43.8042,
    "longitude": 4.6672,
    "picture": ""
  },
  {
    "id": 136,
    "name": "Château Saint-Jean de Nogent-le-Rotrou",
    "address": "Château Saint-Jean, 28400 Nogent-le-Rotrou, Eure-et-Loir, France",
    "type": "castel",
    "latitude": 48.3072,
    "longitude": 0.8186,
    "picture": ""
  },
  {
    "id": 137,
    "name": "Château de Rambures",
    "address": "Château de Rambures, 80140 Rambures, Somme, France",
    "type": "castel",
    "latitude": 49.8628,
    "longitude": 1.7894,
    "picture": ""
  },
  {
    "id": 138,
    "name": "Ruines du château de Pouzauges",
    "address": "Château de Pouzauges, 85700 Pouzauges, Vendée, France",
    "type": "castel",
    "latitude": 46.8850,
    "longitude": -0.8450,
    "picture": ""
  },
  {
    "id": 139,
    "name": "Château Sainte-Marie d'Esterre",
    "address": "Château Sainte-Marie d'Esterre, 65150 Esterre, Hautes-Pyrénées, France",
    "type": "castel",
    "latitude": 42.9500,
    "longitude": 0.1167,
    "picture": ""
  },
  {
    "id": 141,
    "name": "Château de Fénelon",
    "address": "Château de Fénelon, 24170 Sainte-Mondane, Dordogne, France",
    "type": "castel",
    "latitude": 44.8492,
    "longitude": 1.2228,
    "picture": ""
  },
  {
    "id": 142,
    "name": "Château de Costaérès",
    "address": "Château de Costaérès, 22620 Trégastel, Côtes-d'Armor, Bretagne, France",
    "type": "castel",
    "latitude": 48.8272,
    "longitude": -3.4372,
    "picture": ""
  },
  {
    "id": 144,
    "name": "Châteaux de Lassay",
    "address": "Châteaux de Lassay, 53110 Lassay-les-Châteaux, Mayenne, France",
    "type": "castel",
    "latitude": 48.4033,
    "longitude": -0.7575,
    "picture": ""
  },
  {
    "id": 145,
    "name": "Château de Caussade",
    "address": "Château de Caussade, 82300 Caussade, Tarn-et-Garonne, France",
    "type": "castel",
    "latitude": 44.0822,
    "longitude": 1.5839,
    "picture": ""
  },
  {
    "id": 146,
    "name": "Château de Commarque",
    "address": "Château de Commarque, 24290 Les Eyzies-de-Tayac-Sireuil, Dordogne, France",
    "type": "castel",
    "latitude": 44.9364,
    "longitude": 1.0556,
    "picture": ""
  },
  {
    "id": 147,
    "name": "Château de Commequiers",
    "address": "Château de Commequiers, 85220 Commequiers, Vendée, France",
    "type": "castel",
    "latitude": 46.6675,
    "longitude": -1.8328,
    "picture": ""
  },
  {
    "id": 148,
    "name": "Le Palluel",
    "address": "Le Palluel, 24290 Saint-Vincent-le-Paluel, Dordogne, France",
    "type": "castel",
    "latitude": 44.9386,
    "longitude": 1.1086,
    "picture": ""
  },
  {
    "id": 151,
    "name": "Roque-Gageac",
    "address": "Roque-Gageac, 24250 Roque-Gageac, Dordogne, France",
    "type": "castel",
    "latitude": 44.8750,
    "longitude": 1.0917,
    "picture": ""
  },
  {
    "id": 152,
    "name": "Château de Jumilhac",
    "address": "Château de Jumilhac, 24210 Jumilhac-le-Grand, Dordogne, France",
    "type": "castel",
    "latitude": 45.3500,
    "longitude": 0.7500,
    "picture": ""
  },
  {
    "id": 153,
    "name": "Château de Blandy-les-Tours",
    "address": "Château de Blandy-les-Tours, 77115 Blandy, Seine-et-Marne, France",
    "type": "castel",
    "latitude": 48.5333,
    "longitude": 2.8167,
    "picture": ""
  },
  {
    "id": 154,
    "name": "Château de Puilaurens",
    "address": "Château de Puilaurens, 11140 Puilaurens, Aude, France",
    "type": "castel",
    "latitude": 42.8500,
    "longitude": 2.2333,
    "picture": ""
  },
  {
    "id": 155,
    "name": "Château de Portes",
    "address": "Château de Portes, 30140 Portes, Gard, France",
    "type": "castel",
    "latitude": 44.2828,
    "longitude": 3.7711,
    "picture": ""
  },
  {
    "id": 156,
    "name": "Château de Pontarion",
    "address": "Château de Pontarion, 23260 Pontarion, Creuse, France",
    "type": "castel",
    "latitude": 46.1172,
    "longitude": 2.0000,
    "picture": ""
  },
  {
    "id": 157,
    "name": "Château des Milandes",
    "address": "Château des Milandes, 24250 Castelnaud-la-Chapelle, Dordogne, France",
    "type": "castel",
    "latitude": 44.8761,
    "longitude": 1.1236,
    "picture": ""
  },
  {
    "id": 158,
    "name": "Château de Larroque-Toirac",
    "address": "Château de Larroque-Toirac, 46160 Larroque-Toirac, Lot, France",
    "type": "castel",
    "latitude": 44.6833,
    "longitude": 1.6833,
    "picture": ""
  },
  {
    "id": 159,
    "name": "Château de Ploumanac’h",
    "address": "Château de Ploumanac’h, 22700 Perros-Guirec, Côtes-d'Armor, Bretagne, France",
    "type": "castel",
    "latitude": 48.8167,
    "longitude": -3.4667,
    "picture": ""
  },
  {
    "id": 160,
    "name": "Château de Montfort",
    "address": "Château de Montfort, 05300 Mont-Dauphin, Hautes-Alpes, France",
    "type": "castel",
    "latitude": 44.6825,
    "longitude": 6.5997,
    "picture": ""
  },
  {
    "id": 162,
    "name": "Château de Romefort",
    "address": "Château de Romefort, 24300 Saint-Aulaye, Dordogne, France",
    "type": "castel",
    "latitude": 45.1000,
    "longitude": 0.2833,
    "picture": ""
  },
  {
    "id": 163,
    "name": "Château de Ségur",
    "address": "Château de Ségur, 15130 Ségur-les-Villas, Cantal, France",
    "type": "castel",
    "latitude": 44.9000,
    "longitude": 2.8000,
    "picture": ""
  },
  {
    "id": 164,
    "name": "Château de Loches",
    "address": "Château de Loches, 37600 Loches, Indre-et-Loire, France",
    "type": "castel",
    "latitude": 47.1500,
    "longitude": 0.9833,
    "picture": ""
  },
  {
    "id": 165,
    "name": "Château de Mareuil",
    "address": "Château de Mareuil, 24340 Mareuil, Dordogne, France",
    "type": "castel",
    "latitude": 45.3617,
    "longitude": 0.4833,
    "picture": ""
  },
  {
    "id": 166,
    "name": "Donjon de Septmonts",
    "address": "Donjon de Septmonts, 02000 Septmonts, Aisne, France",
    "type": "castel",
    "latitude": 49.4239,
    "longitude": 3.2806,
    "picture": ""
  },
  {
    "id": 167,
    "name": "Brousse le Château",
    "address": "Brousse-le-Château, 12150 Brousse-le-Château, Aveyron, France",
    "type": "castel",
    "latitude": 44.3622,
    "longitude": 2.7333,
    "picture": ""
  },
  {
    "id": 168,
    "name": "Château de Châlucet",
    "address": "Château de Châlucet, 87230 Saint-Jean-Ligoure, Haute-Vienne, France",
    "type": "castel",
    "latitude": 45.8333,
    "longitude": 1.3167,
    "picture": ""
  },
  {
    "id": 169,
    "name": "Château de Guillaume dit 'le troubadour'",
    "address": "Château de Lignac, 36230 Lignac, Indre, France",
    "type": "castel",
    "latitude": 46.3833,
    "longitude": 1.5333,
    "picture": ""
  },
  {
    "id": 171,
    "name": "Château d'Hardelot",
    "address": "Château d'Hardelot, 62360 Neufchâtel-Hardelot, Pas-de-Calais, France",
    "type": "castel",
    "latitude": 50.6961,
    "longitude": 1.6111,
    "picture": ""
  },
  {
    "id": 173,
    "name": "Château de Langoiran",
    "address": "Château de Langoiran, 33550 Langoiran, Gironde, France",
    "type": "castel",
    "latitude": 44.6667,
    "longitude": -0.4167,
    "picture": ""
  },
  {
    "id": 174,
    "name": "Château de la Rochepot",
    "address": "Château de la Rochepot, 21340 La Rochepot, Côte-d'Or, France",
    "type": "castel",
    "latitude": 47.1672,
    "longitude": 4.7678,
    "picture": ""
  },
  {
    "id": 175,
    "name": "Château de Chillon",
    "address": "Château de Chillon, 1820 Veytaux, Suisse",
    "type": "castel",
    "latitude": 46.4142,
    "longitude": 6.9271,
    "picture": ""
  },
  {
    "id": 176,
    "name": "Château de Montbrun",
    "address": "Château de Montbrun, 24160 Saint-Front-de-Pradoux, Dordogne, France",
    "type": "castel",
    "latitude": 45.1833,
    "longitude": 0.4833,
    "picture": ""
  },
  {
    "id": 177,
    "name": "Château de Quéribus",
    "address": "Château de Quéribus, 11350 Cucugnan, Aude, France",
    "type": "castel",
    "latitude": 42.8967,
    "longitude": 2.6367,
    "picture": ""
  },
  {
    "id": 178,
    "name": "Château de l’Ortenbourg",
    "address": "Château de l’Ortenbourg, 67110 Scherwiller, Bas-Rhin, France",
    "type": "castel",
    "latitude": 48.4411,
    "longitude": 7.3903,
    "picture": ""
  },
  {
    "id": 179,
    "name": "Château de La Roche-Guyon",
    "address": "Château de La Roche-Guyon, 95780 La Roche-Guyon, Val-d'Oise, France",
    "type": "castel",
    "latitude": 49.0833,
    "longitude": 1.6333,
    "picture": ""
  },
  {
    "id": 180,
    "name": "Château de Loarre",
    "address": "Château de Loarre, 2231 Loarre, Huesca, Espagne",
    "type": "castel",
    "latitude": 42.1833,
    "longitude": -0.1667,
    "picture": ""
  },
  {
    "id": 181,
    "name": "Forteresse de Mornas",
    "address": "Forteresse de Mornas, 84550 Mornas, Vaucluse, France",
    "type": "castel",
    "latitude": 44.2500,
    "longitude": 4.8333,
    "picture": ""
  },
  {
    "id": 182,
    "name": "Château de Sarzay",
    "address": "Château de Sarzay, 36230 Sarzay, Indre, France",
    "type": "castel",
    "latitude": 46.3500,
    "longitude": 1.6167,
    "picture": ""
  },
  {
    "id": 183,
    "name": "Château de Suze-la-Rousse",
    "address": "Château de Suze-la-Rousse, 26790 Suze-la-Rousse, Drôme, France",
    "type": "castel",
    "latitude": 44.2833,
    "longitude": 4.7833,
    "picture": ""
  },
  {
    "id": 184,
    "name": "Château de Brézé",
    "address": "Château de Brézé, 49190 Brézé, Maine-et-Loire, France",
    "type": "castel",
    "latitude": 47.3667,
    "longitude": -0.0833,
    "picture": ""
  },
  {
    "id": 189,
    "name": "Château de Roquefixade",
    "address": "Château de Roquefixade, 09310 Roquefixade, Ariège, France",
    "type": "castel",
    "latitude": 42.8833,
    "longitude": 1.7333,
    "picture": ""
  },
  {
    "id": 190,
    "name": "Château de Kergounadeach",
    "address": "Château de Kergounadeach, Bretagne, France",
    "type": "castel",
    "latitude": 48.6000,
    "longitude": -3.9500,
    "picture": ""
  },
  {
    "id": 192,
    "name": "Les Tours de Merle",
    "address": "Les Tours de Merle, 19380 Saint-Geniez-ô-Merle, Corrèze, France",
    "type": "castel",
    "latitude": 45.2333,
    "longitude": 2.3333,
    "picture": ""
  },
  {
    "id": 193,
    "name": "Château du Coudray-Salbart",
    "address": "Château du Coudray-Salbart, 79400 Salbart, Deux-Sèvres, France",
    "type": "castel",
    "latitude": 46.5500,
    "longitude": -0.2333,
    "picture": ""
  },
  {
    "id": 194,
    "name": "Château de Montrottier",
    "address": "Château de Montrottier, 74350 Lovagny, Haute-Savoie, France",
    "type": "castel",
    "latitude": 45.9133,
    "longitude": 6.0778,
    "picture": ""
  },
  {
    "id": 195,
    "name": "Château de Sainte-Suzanne",
    "address": "Château de Sainte-Suzanne, 53270 Sainte-Suzanne, Mayenne, France",
    "type": "castel",
    "latitude": 48.1233,
    "longitude": -0.6644,
    "picture": ""
  },
  {
    "id": 196,
    "name": "Château de Mauvezin",
    "address": "Château de Mauvezin, 32110 Mauvezin, Gers, France",
    "type": "castel",
    "latitude": 43.4667,
    "longitude": 0.6000,
    "picture": ""
  },
  {
    "id": 198,
    "name": "Pont Valentré",
    "address": "Pont Valentré, 46000 Cahors, Lot, France",
    "type": "castel",
    "latitude": 44.4475,
    "longitude": 1.4361,
    "picture": ""
  },
  {
    "id": 199,
    "name": "Château de Laussel",
    "address": "Château de Laussel, 24290 Marquay, Dordogne, France",
    "type": "castel",
    "latitude": 45.1150,
    "longitude": 1.2133,
    "picture": ""
  },
  {
    "id": 200,
    "name": "Roquetaillade Castle",
    "address": "Château de Roquetaillade, 33124 Mazères, Gironde, France",
    "type": "castel",
    "latitude": 44.6117,
    "longitude": -0.2194,
    "picture": ""
  },
  {
    "id": 201,
    "name": "Château de Villemonteix",
    "address": "Château de Villemonteix, 23200 Villemonteix, Creuse, France",
    "type": "castel",
    "latitude": 46.0667,
    "longitude": 2.3833,
    "picture": ""
  },
  {
    "id": 202,
    "name": "Château de La Chèze",
    "address": "Château de La Chèze, 19200 Le Cheylard, Corrèze, France",
    "type": "castel",
    "latitude": 45.2167,
    "longitude": 2.2000,
    "picture": ""
  },
  {
    "id": 204,
    "name": "Fort Queyras",
    "address": "Fort Queyras, 05350 Château-Ville-Vieille, Hautes-Alpes, France",
    "type": "castel",
    "latitude": 44.8000,
    "longitude": 6.9500,
    "picture": ""
  },
  {
    "id": 205,
    "name": "Château du Bernstein",
    "address": "Château du Bernstein, 67110 Dambach, Bas-Rhin, France",
    "type": "castel",
    "latitude": 48.4000,
    "longitude": 7.5333,
    "picture": ""
  },
  {
    "id": 206,
    "name": "Château de Puivert",
    "address": "Château de Puivert, 11230 Puivert, Aude, France",
    "type": "castel",
    "latitude": 42.9872,
    "longitude": 2.2353,
    "picture": ""
  },
  {
    "id": 207,
    "name": "Château de Cabrières",
    "address": "Château de Cabrières, 30120 Cabrières, Gard, France",
    "type": "castel",
    "latitude": 43.9733,
    "longitude": 3.7422,
    "picture": ""
  },
  {
    "id": 208,
    "name": "Château de Guérande",
    "address": "Château de Guérande, 44350 Guérande, Loire-Atlantique, France",
    "type": "castel",
    "latitude": 47.2939,
    "longitude": -2.4356,
    "picture": ""
  },
  {
    "id": 209,
    "name": "Coucy-le-Château",
    "address": "Coucy-le-Château-Auffrique, 02380 Coucy-le-Château, Aisne, France",
    "type": "castel",
    "latitude": 49.5861,
    "longitude": 3.2500,
    "picture": ""
  },
  {
    "id": 210,
    "name": "Château de Wangenbourg",
    "address": "Château de Wangenbourg, 67670 Wangenbourg-Engenthal, Bas-Rhin, France",
    "type": "castel",
    "latitude": 48.6994,
    "longitude": 7.3428,
    "picture": ""
  },
  {
    "id": 211,
    "name": "Domfront",
    "address": "Château de Domfront, 61700 Domfront-en-Poiraie, Orne, France",
    "type": "castel",
    "latitude": 48.6892,
    "longitude": -0.8103,
    "picture": ""
  },
  {
    "id": 212,
    "name": "Château de Bannes",
    "address": "Château de Bannes, 03470 Bannes, Allier, France",
    "type": "castel",
    "latitude": 46.4333,
    "longitude": 3.5333,
    "picture": ""
  },
  {
    "id": 214,
    "name": "Château de Turenne",
    "address": "Château de Turenne, 19500 Turenne, Corrèze, France",
    "type": "castel",
    "latitude": 44.9933,
    "longitude": 1.7494,
    "picture": ""
  },
  {
    "id": 215,
    "name": "Gavaudun",
    "address": "Château de Gavaudun, 47250 Gavaudun, Lot-et-Garonne, France",
    "type": "castel",
    "latitude": 44.3750,
    "longitude": 0.5500,
    "picture": ""
  },
  {
    "id": 216,
    "name": "Château-monastère de la Léotardie",
    "address": "Château-monastère de la Léotardie, France",
    "type": "castel",
    "latitude": 44.5000,
    "longitude": 0.6000,
    "picture": ""
  },
  {
    "id": 217,
    "name": "Château de Ventadour",
    "address": "Château de Ventadour, 09600 Meyras, Ardèche, France",
    "type": "castel",
    "latitude": 44.6778,
    "longitude": 4.4733,
    "picture": ""
  },
  {
    "id": 218,
    "name": "Château de Thoury",
    "address": "Château de Thoury, France",
    "type": "castel",
    "latitude": 47.9833,
    "longitude": 0.7333,
    "picture": ""
  },
  {
    "id": 219,
    "name": "Château de Nesles",
    "address": "Château de Nesles, Nesles-la-Montagne, France",
    "type": "castel",
    "latitude": 49.2000,
    "longitude": 3.7333,
    "picture": ""
  },
  {
    "id": 220,
    "name": "Château Sainte-Marie",
    "address": "Château Sainte-Marie, France",
    "type": "castel",
    "latitude": 44.3333,
    "longitude": 2.6667,
    "picture": ""
  },
  {
    "id": 221,
    "name": "Citadelle de Sisteron",
    "address": "Citadelle de Sisteron, 04200 Sisteron, Alpes-de-Haute-Provence, France",
    "type": "castel",
    "latitude": 44.2000,
    "longitude": 5.9461,
    "picture": ""
  },
  {
    "id": 223,
    "name": "Château de la Prune-au-Pot",
    "address": "Château de la Prune-au-Pot, France",
    "type": "castel",
    "latitude": 45.1000,
    "longitude": 3.5000,
    "picture": ""
  },
  {
    "id": 224,
    "name": "Château de Rochemaure",
    "address": "Château de Rochemaure, 07400 Rochemaure, Ardèche, France",
    "type": "castel",
    "latitude": 44.7292,
    "longitude": 4.7500,
    "picture": ""
  },
  {
    "id": 225,
    "name": "Château de Montréal",
    "address": "Château de Montréal, 24260 Montréal, Dordogne, France",
    "type": "castel",
    "latitude": 44.9722,
    "longitude": 0.7222,
    "picture": ""
  },
  {
    "id": 226,
    "name": "Château de Montmuran",
    "address": "Château de Montmuran, 35133 Iffendic, Ille-et-Vilaine, France",
    "type": "castel",
    "latitude": 48.2167,
    "longitude": -1.9000,
    "picture": ""
  },
  {
    "id": 228,
    "name": "Château du Guildo",
    "address": "Château du Guildo, 22130 Créhen, Côtes-d'Armor, France",
    "type": "castel",
    "latitude": 48.5833,
    "longitude": -2.3167,
    "picture": ""
  },
  {
    "id": 229,
    "name": "Château de Villandraut",
    "address": "Château de Villandraut, 33540 Villandraut, Gironde, France",
    "type": "castel",
    "latitude": 44.4972,
    "longitude": -0.2567,
    "picture": ""
  },
  {
    "id": 231,
    "name": "Château de Rötteln",
    "address": "Château de Rötteln, Lörrach, Allemagne",
    "type": "castel",
    "latitude": 47.6150,
    "longitude": 7.6750,
    "picture": ""
  },
  {
    "id": 232,
    "name": "Château du Landsberg",
    "address": "Château du Landsberg, France",
    "type": "castel",
    "latitude": 48.8000,
    "longitude": 7.4000,
    "picture": ""
  },
  {
    "id": 233,
    "name": "Vervolière",
    "address": "Vervolière, Coussay-les-Bois, Vienne, France",
    "type": "castel",
    "latitude": 46.5667,
    "longitude": 0.4500,
    "picture": ""
  },
  {
    "id": 234,
    "name": "Château de Hautségur",
    "address": "Château de Hautségur, 07380 Meyras, Ardèche, France",
    "type": "castel",
    "latitude": 44.6772,
    "longitude": 4.4742,
    "picture": ""
  },
  {
    "id": 235,
    "name": "Château des seigneurs de Pirou",
    "address": "Château de Pirou, 50770 Pirou, Manche, France",
    "type": "castel",
    "latitude": 49.3600,
    "longitude": -1.6133,
    "picture": ""
  },
  {
    "id": 236,
    "name": "Château de Picquigny",
    "address": "Château de Picquigny, 80310 Picquigny, Somme, France",
    "type": "castel",
    "latitude": 49.8992,
    "longitude": 2.0572,
    "picture": ""
  },
  {
    "id": 237,
    "name": "Château Saint-Ulrich",
    "address": "Château Saint-Ulrich, 68370 Ribeauvillé, Haut-Rhin, France",
    "type": "castel",
    "latitude": 48.2083,
    "longitude": 7.3439,
    "picture": ""
  },
  {
    "id": 238,
    "name": "Forteresse de Veauce",
    "address": "Forteresse de Veauce, 03440 Veauce, Allier, France",
    "type": "castel",
    "latitude": 46.1500,
    "longitude": 3.4000,
    "picture": ""
  },
  {
    "id": 239,
    "name": "Château des Adhémar",
    "address": "Château des Adhémar, 26200 Montélimar, Drôme, France",
    "type": "castel",
    "latitude": 44.5667,
    "longitude": 4.7500,
    "picture": ""
  },
  {
    "id": 240,
    "name": "Chateaugiron",
    "address": "Chateaugiron, 35410 Chateaugiron, Ille-et-Vilaine, France",
    "type": "castel",
    "latitude": 48.1000,
    "longitude": -1.4667,
    "picture": ""
  },
  {
    "id": 241,
    "name": "Château de Thouzon",
    "address": "Château de Thouzon, France",
    "type": "castel",
    "latitude": 43.9000,
    "longitude": 4.7500,
    "picture": ""
  },
  {
    "id": 242,
    "name": "Tours de Saint-Laurent",
    "address": "Tours de Saint-Laurent, France",
    "type": "castel",
    "latitude": 45.0667,
    "longitude": 4.8500,
    "picture": ""
  },
  {
    "id": 243,
    "name": "Fort Libéria",
    "address": "Fort Libéria, 66150 Villefranche-de-Conflent, Pyrénées-Orientales, France",
    "type": "castel",
    "latitude": 42.6700,
    "longitude": 2.5450,
    "picture": ""
  },
  {
    "id": 244,
    "name": "Château de Gisors",
    "address": "Château de Gisors, 27140 Gisors, Eure, France",
    "type": "castel",
    "latitude": 49.3142,
    "longitude": 1.7064,
    "picture": ""
  },
  {
    "id": 245,
    "name": "La Tour et le Château de Brison",
    "address": "La Tour et le Château de Brison, Sanilhac, Ardèche, France",
    "type": "castel",
    "latitude": 44.6240,
    "longitude": 4.4480,
    "picture": ""
  },
  {
    "id": 246,
    "name": "Château de Chazeron",
    "address": "Château de Chazeron, 63410 Chazeron, Puy-de-Dôme, France",
    "type": "castel",
    "latitude": 46.1872,
    "longitude": 2.8856,
    "picture": ""
  },
  {
    "id": 247,
    "name": "Castelbouc",
    "address": "Castelbouc, 48220 Sainte-Enimie, Lozère, France",
    "type": "castel",
    "latitude": 44.4297,
    "longitude": 3.5200,
    "picture": ""
  },
  {
    "id": 248,
    "name": "Château de Brisis",
    "address": "Château de Brisis (ruine), France",
    "type": "castel",
    "latitude": 44.3833,
    "longitude": 3.6500,
    "picture": ""
  },
  {
    "id": 249,
    "name": "Château de Sully",
    "address": "Château de Sully, 28250 Sully, Eure-et-Loir, France",
    "type": "castel",
    "latitude": 48.5150,
    "longitude": 1.3850,
    "picture": ""
  },
  {
    "id": 250,
    "name": "Ainay-le-Vieil",
    "address": "Château d'Ainay-le-Vieil, 18200 Ainay-le-Vieil, Cher, France",
    "type": "castel",
    "latitude": 46.5564,
    "longitude": 2.3125,
    "picture": ""
  },
  {
    "id": 251,
    "name": "Château du Haut-Barr",
    "address": "Château du Haut-Barr, 67500 Saverne, Bas-Rhin, France",
    "type": "castel",
    "latitude": 48.7236,
    "longitude": 7.4542,
    "picture": ""
  },
  {
    "id": 252,
    "name": "Château de La Madeleine",
    "address": "Château de La Madeleine, 42350 Chevenoz, France",
    "type": "castel",
    "latitude": 45.9333,
    "longitude": 4.1500,
    "picture": ""
  },
  {
    "id": 253,
    "name": "Château de Robert le Diable",
    "address": "Château de Robert le Diable (ruine), 76490 Moulineaux, Seine-Maritime, France",
    "type": "castel",
    "latitude": 49.4583,
    "longitude": 0.9153,
    "picture": ""
  },
  {
    "id": 254,
    "name": "Château de Sagonne",
    "address": "Château de Sagonne, 18600 Sagonne, Cher, France",
    "type": "castel",
    "latitude": 46.7250,
    "longitude": 2.9450,
    "picture": ""
  },
  {
    "id": 255,
    "name": "Château de Kintzheim",
    "address": "Château de Kintzheim, 67600 Kintzheim, Bas-Rhin, France",
    "type": "castel",
    "latitude": 48.3181,
    "longitude": 7.4031,
    "picture": ""
  },
  {
    "id": 256,
    "name": "Tour Solidor",
    "address": "Tour Solidor, 35800 Saint-Malo, Ille-et-Vilaine, France",
    "type": "castel",
    "latitude": 48.6350,
    "longitude": -2.0228,
    "picture": ""
  },
  {
    "id": 258,
    "name": "Château de Gombervaux",
    "address": "Château de Gombervaux, 51800 Saint-Remy-sur-Bussy, Marne, France",
    "type": "castel",
    "latitude": 49.1000,
    "longitude": 4.7833,
    "picture": ""
  },
  {
    "id": 259,
    "name": "Château de la Couronne",
    "address": "Château de la Couronne, 16400 La Couronne, Charente, France",
    "type": "castel",
    "latitude": 45.6700,
    "longitude": 0.1800,
    "picture": ""
  },
  {
    "id": 260,
    "name": "Château du Bouchet",
    "address": "Château du Bouchet, 36100 Bouchet, Indre, France",
    "type": "castel",
    "latitude": 46.7000,
    "longitude": 1.2000,
    "picture": ""
  },
  {
    "id": 261,
    "name": "Château de Fourchaud",
    "address": "Château de Fourchaud, 03380 Fourchaud, Allier, France",
    "type": "castel",
    "latitude": 46.4150,
    "longitude": 3.3250,
    "picture": ""
  },
  {
    "id": 263,
    "name": "Château de Brancion",
    "address": "Château de Brancion (ruine), 71250 Martailly-lès-Brancion, Saône-et-Loire, France",
    "type": "castel",
    "latitude": 46.5200,
    "longitude": 4.6900,
    "picture": ""
  },
  {
    "id": 264,
    "name": "Girbaden",
    "address": "Girbaden, Alsace, France (ruine)",
    "type": "castel",
    "latitude": 48.3200,
    "longitude": 7.3430,
    "picture": ""
  },
  {
    "id": 265,
    "name": "Château de Pontivy",
    "address": "Château de Pontivy, 56300 Pontivy, Morbihan, France",
    "type": "castel",
    "latitude": 48.0667,
    "longitude": -2.9667,
    "picture": ""
  },
  {
    "id": 266,
    "name": "Fort Victor Emmanuel",
    "address": "Fort Victor Emmanuel, France",
    "type": "castel",
    "latitude": 43.9350,
    "longitude": 7.4050,
    "picture": ""
  },
  {
    "id": 268,
    "name": "Manoir de la Pommeraye",
    "address": "Fatouville, France",
    "type": "castel",
    "latitude": 49.4800,
    "longitude": 0.5100,
    "picture": ""
  },
  {
    "id": 269,
    "name": "Gravensteen",
    "address": "Gravensteen, Ghent, Belgium",
    "type": "castel",
    "latitude": 51.0543,
    "longitude": 3.7174,
    "picture": ""
  },
  {
    "id": 270,
    "name": "Castello dell’Abbadia",
    "address": "Maremma, Tuscany, Italy",
    "type": "castel",
    "latitude": 42.4460,
    "longitude": 11.1120,
    "picture": ""
  },
  {
    "id": 271,
    "name": "Castel Roncolo",
    "address": "Bolzano, Italy",
    "type": "castel",
    "latitude": 46.5320,
    "longitude": 11.3330,
    "picture": ""
  },
  {
    "id": 272,
    "name": "Bonoris Castle",
    "address": "Bonoris Castle, Italy",
    "type": "castel",
    "latitude": 45.5640,
    "longitude": 10.2120,
    "picture": ""
  },
  {
    "id": 273,
    "name": "Castello di Rocca",
    "address": "Italy",
    "type": "castel",
    "latitude": 44.7000,
    "longitude": 10.9330,
    "picture": ""
  },
  {
    "id": 274,
    "name": "Brunnenburg Castle",
    "address": "Italy",
    "type": "castel",
    "latitude": 46.5080,
    "longitude": 11.3480,
    "picture": ""
  },
  {
    "id": 277,
    "name": "Requesens Castle",
    "address": "Catalonia, Spain",
    "type": "castel",
    "latitude": 42.4500,
    "longitude": 2.9330,
    "picture": ""
  },
  {
    "id": 278,
    "name": "Sentier des ocres",
    "address": "Roussillon, Luberon, France",
    "type": "natural site",
    "latitude": 43.9130,
    "longitude": 5.3500,
    "picture": ""
  },
  {
    "id": 279,
    "name": "Colorado provençal",
    "address": "Luberon, Vaucluse, France",
    "type": "natural site",
    "latitude": 43.9000,
    "longitude": 5.4000,
    "picture": ""
  },
  {
    "id": 280,
    "name": "Vallée de la Sioule",
    "address": "Puy-de-Dôme, Auvergne, France",
    "type": "natural site",
    "latitude": 46.0830,
    "longitude": 3.4200,
    "picture": ""
  },
  {
    "id": 281,
    "name": "Vallée du Salagou",
    "address": "Hérault, France",
    "type": "natural site",
    "latitude": 43.7330,
    "longitude": 3.4500,
    "picture": ""
  },
  {
    "id": 282,
    "name": "Pénitents des Mées",
    "address": "Alpes-de-Haute-Provence, France",
    "type": "natural site",
    "latitude": 44.1000,
    "longitude": 5.8250,
    "picture": ""
  },
  {
    "id": 283,
    "name": "Vallée de l'Orbiel",
    "address": "Aude, Montagne Noire, France",
    "type": "natural site",
    "latitude": 43.3500,
    "longitude": 2.5000,
    "picture": ""
  },
  {
    "id": 285,
    "name": "natural Lac de l'Orceyrette",
    "address": "Hautes-Alpes, France",
    "type": "site",
    "latitude": 44.6500,
    "longitude": 6.1500,
    "picture": ""
  },
  {
    "id": 286,
    "name": "Grand Dondon",
    "address": "Massif du Dondon, Bas-Rhin, France",
    "type": "natural site",
    "latitude": 48.7500,
    "longitude": 7.6500,
    "picture": ""
  },
  {
    "id": 287,
    "name": "Bambouseraie d'Anduze",
    "address": "Gard, France",
    "type": "natural site",
    "latitude": 44.0900,
    "longitude": 4.0500,
    "picture": ""
  },
  {
    "id": 288,
    "name": "Piscia di Gallu",
    "address": "Ospédale, Corse, France",
    "type": "natural site",
    "latitude": 41.6500,
    "longitude": 9.0500,
    "picture": ""
  },
  {
    "id": 289,
    "name": "Cascade d'Ars",
    "address": "Ariège, France",
    "type": "natural site",
    "latitude": 42.9500,
    "longitude": 1.8500,
    "picture": ""
  },
  {
    "id": 290,
    "name": "Cirque de Mourèze",
    "address": "Route de la dolomie, 34800 Mourèze",
    "type": "natural site",
    "latitude": 43.61715,
    "longitude": 3.36116,
    "picture": ""
  },
  {
    "id": 291,
    "name": "Puy du Pariou",
    "address": "Puy-de-Dôme, Auvergne, France",
    "type": "natural site",
    "latitude": 45.7770,
    "longitude": 3.0180,
    "picture": ""
  },
  {
    "id": 292,
    "name": "Col de la Crouzette",
    "address": "Ariège, France",
    "type": "natural site",
    "latitude": 42.8830,
    "longitude": 1.8170,
    "picture": ""
  },
  {
    "id": 293,
    "name": "Ravin de Corboeuf",
    "address": "Haute-Loire, Puy-en-Velay, France",
    "type": "natural site",
    "latitude": 45.0500,
    "longitude": 3.8800,
    "picture": ""
  },
  {
    "id": 294,
    "name": "Cascade du Rouget",
    "address": "Haute-Savoie, massif du Giffre, France",
    "type": "natural site",
    "latitude": 46.0650,
    "longitude": 6.7500,
    "picture": ""
  },
  {
    "id": 295,
    "name": "Aiguille Percée de Tignes",
    "address": "Savoie, France",
    "type": "natural site",
    "latitude": 45.5550,
    "longitude": 6.9500,
    "picture": ""
  },
  {
    "id": 296,
    "name": "Cascade des Tufs",
    "address": "Jura, France",
    "type": "natural site",
    "latitude": 46.0700,
    "longitude": 5.9100,
    "picture": ""
  },
  {
    "id": 297,
    "name": "Crête de Géruen",
    "address": "Alpes-de-Haute-Provence, France",
    "type": "natural site",
    "latitude": 44.0500,
    "longitude": 6.9000,
    "picture": ""
  },
  {
    "id": 298,
    "name": "Col de Bavella",
    "address": "Corse-du-Sud, France",
    "type": "natural site",
    "latitude": 41.9000,
    "longitude": 9.3000,
    "picture": ""
  },
  {
    "id": 299,
    "name": "Lac de la Douche",
    "address": "Hautes-Alpes, France",
    "type": "natural site",
    "latitude": 44.6500,
    "longitude": 6.2000,
    "picture": ""
  },
  {
    "id": 300,
    "name": "Lac de Lispach",
    "address": "Vosges, France",
    "type": "natural site",
    "latitude": 48.0000,
    "longitude": 6.9330,
    "picture": ""
  },
  {
    "id": 301,
    "name": "La Dent du Villard",
    "address": "France",
    "type": "natural site",
    "latitude": 45.6500,
    "longitude": 6.2500,
    "picture": ""
  },
  {
    "id": 303,
    "name": "Gorges de la Jonte",
    "address": "Lozère, France",
    "type": "natural site",
    "latitude": 44.2330,
    "longitude": 3.3000,
    "picture": ""
  },
  {
    "id": 304,
    "name": "Forêt de Huelgoat",
    "address": "Finistère, Bretagne, France",
    "type": "natural site",
    "latitude": 48.3500,
    "longitude": -3.7330,
    "picture": "https://res.cloudinary.com/amenitiz/image/upload/c_fill,q_90,w_1100/v1615458594/oc4i0id2lpgabw4ediyb.jpg"
  },
  {
    "id": 305,
    "name": "Phosphatières du Cloup d'Aural",
    "address": "Lot, France",
    "type": "natural site",
    "latitude": 44.4500,
    "longitude": 1.8330,
    "picture": ""
  },
  {
    "id": 306,
    "name": "Souterroscope des Ardoisières",
    "address": "France",
    "type": "natural site",
    "latitude": 45.1000,
    "longitude": 3.4000,
    "picture": ""
  },
  {
    "id": 309,
    "name": "Mougins",
    "address": "Alpes-Maritimes, France",
    "type": "city",
    "latitude": 43.6160,
    "longitude": 7.0170,
    "picture": ""
  },
  {
    "id": 310,
    "name": "Robion",
    "address": "Vaucluse, France",
    "type": "city",
    "latitude": 43.9500,
    "longitude": 5.2160,
    "picture": ""
  },
  {
    "id": 311,
    "name": "Séguret",
    "address": "Vaucluse, France",
    "type": "city",
    "latitude": 44.1170,
    "longitude": 4.8830,
    "picture": ""
  },
  {
    "id": 312,
    "name": "Malestroit",
    "address": "Morbihan, France",
    "type": "city",
    "latitude": 47.7800,
    "longitude": -2.3500,
    "picture": ""
  },
  {
    "id": 313,
    "name": "Rochefort-en-Terre",
    "address": "Morbihan, France",
    "type": "city",
    "latitude": 47.8550,
    "longitude": -2.4930,
    "picture": ""
  },
  {
    "id": 314,
    "name": "Lacoste",
    "address": "Vaucluse, France",
    "type": "city",
    "latitude": 43.8160,
    "longitude": 5.2830,
    "picture": ""
  },
  {
    "id": 316,
    "name": "Belvès",
    "address": "Dordogne, France",
    "type": "city",
    "latitude": 44.8390,
    "longitude": 1.1190,
    "picture": ""
  },
  {
    "id": 317,
    "name": "Collonges-la-Rouge",
    "address": "Corrèze, France",
    "type": "city",
    "latitude": 45.0900,
    "longitude": 1.8830,
    "picture": ""
  },
  {
    "id": 318,
    "name": "Castelet",
    "address": "Var, France",
    "type": "site",
    "latitude": 43.2330,
    "longitude": 6.4330,
    "picture": ""
  },
  {
    "id": 319,
    "name": "Tourtour",
    "address": "Var, France",
    "type": "city",
    "latitude": 43.6560,
    "longitude": 6.3530,
    "picture": "https://www.francecomfort.com/l/fr/library/download/urn:uuid:e22b3509-4c1e-4242-a1b3-8f3701e80198/tourtour+1+vakantiehuis+luxe+villa+zwembad+var+provence+frankrijk+plus+beau+village.jpg?width=1280&height=800&scaleType=6"
  },
  {
    "id": 320,
    "name": "Semur-en-Auxois",
    "address": "Côte-d'Or, France",
    "type": "city",
    "latitude": 47.5100,
    "longitude": 4.3200,
    "picture": "https://www.bourgogne-tourisme.com/uploads/external/78ebe4e59f79fabc2f0c560d203f1e71-31944-pont-pinard-1600x0.png"
  },
  {
    "id": 321,
    "name": "Saint-Chély-du-Tarn",
    "address": "Lozère, France",
    "type": "city",
    "latitude": 44.2830,
    "longitude": 3.2500,
    "picture": "https://static-otelico.com/cache/caze_enimie/saint-chely-du-tarn-lozere.jpg"
  },
  {
    "id": 322,
    "name": "Moret-sur-Loing",
    "address": "Seine-et-Marne, France",
    "type": "city",
    "latitude": 48.4000,
    "longitude": 2.7970,
    "picture": "https://www.plusbeauxdetours.com/wp-content/uploads/2020/04/webavantMoret-sur-Loing.jpg"
  },
  {
    "id": 323,
    "name": "Saint-Cirq-Carennac",
    "address": "Lot, France",
    "type": "city",
    "latitude": 44.4910,
    "longitude": 1.6250,
    "picture": "https://explorez.com/wp-content/uploads/2022/02/Saint-Cirq-Lapopie-6_Virginie-Verglas_Instant-decisif-scaled.jpeg"
  },
  {
    "id": 324,
    "name": "Poul Fetan",
    "address": "Quistinic, Morbihan, France",
    "type": "city",
    "latitude": 47.8570,
    "longitude": -2.8410,
    "picture": "https://www.poul-fetan.bzh/wp-content/uploads/2021/06/villageois-cheval-rire-1.jpg"
  },
  {
    "id": 325,
    "name": "Sarlat-la-Canéda",
    "address": "Dordogne, France",
    "type": "city",
    "latitude": 44.8880,
    "longitude": 1.2150,
    "picture": "https://ulysse.com/news/wp-content/uploads/2025/04/Le-village-de-Sarlat-la-Caneda.jpg"
  },
  {
    "id": 326,
    "name": "Site de Meneham",
    "address": "Kerlouan, Finistère, France",
    "type": "monument",
    "latitude": 48.7110,
    "longitude": -4.5660,
    "picture": "https://encrypted-tbn0.gstatic.com/images?q=tbn:ANd9GcS_-OGz4KETb-S8PpIjZb6ne_guAKqwAInhPQ&s"
  },
  {
    "id": 327,
    "name": "Issigeac",
    "address": "Dordogne, France",
    "type": "city",
    "latitude": 44.7820,
    "longitude": 0.8830,
    "picture": "https://petitescitesdecaractere.com/sites/default/files/photo_issigeac_3-_credit_lezbroz.jpg"
  },
  {
    "id": 328,
    "name": "Champerboux",
    "address": "Lozère, France",
    "type": "city",
    "latitude": 44.5500,
    "longitude": 3.6000,
    "picture": "https://cdt48.media.tourinsoft.eu/upload/PCULAR048V50AT5L-champerboux1.jpg?width=1050&height=600&crop=1"
  },
  {
    "id": 329,
    "name": "Ermitage Saint-Antoine de Galamus",
    "address": "Aude, France",
    "type": "monument",
    "latitude": 42.8310,
    "longitude": 2.5900,
    "picture": ""
  },
  {
    "id": 330,
    "name": "Loubressac",
    "address": "Lot, France",
    "type": "city",
    "latitude": 44.5150,
    "longitude": 1.6160,
    "picture": "https://www.pariszigzag.fr/wp-content/uploads/2024/06/loubressac.webp"
  },
  {
    "id": 331,
    "name": "La Cavalerie",
    "address": "Larzac, Aveyron, France",
    "type": "city",
    "latitude": 43.9500,
    "longitude": 3.0500,
    "picture": ""
  },
  {
    "id": 332,
    "name": "Cotignac",
    "address": "Var, France",
    "type": "city",
    "latitude": 43.5440,
    "longitude": 6.2160,
    "picture": ""
  },
  {
    "id": 335,
    "name": "Autoire",
    "address": "Lot, France",
    "type": "city",
    "latitude": 44.5770,
    "longitude": 1.5610,
    "picture": ""
  }
]














  



